{"0": {"id": 78, "name": "Jenna Silva", "address": "822 Mclean Shoal Suite 158\nVictorbury, UT 74079", "latitude": "89.778703", "longitude": "-100.411647"}, "1": {"id": 93, "name": "David Henson", "address": "19786 Ramirez Ranch\nPort Lesliehaven, WI 08827", "latitude": "-0.0443575", "longitude": "-176.844733"}, "2": {"id": 64, "name": "Holly Johnston", "address": "318 Shane Union Apt. 504\nPort Jennifermouth, GA 25396", "latitude": "-75.0405695", "longitude": "-146.794759"}, "3": {"id": 94, "name": "Katherine Carlson", "address": "39082 David Row\nKimberlytown, IA 55442", "latitude": "-26.769365", "longitude": "158.477439"}, "4": {"id": 39, "name": "Paige Barron MD", "address": "00992 Turner Locks\nLake Maria, NE 10109", "latitude": "-47.208603", "longitude": "-114.151859"}, "5": {"id": 54, "name": "Shelia Wheeler", "address": "165 Potts Keys\nNorth Nicholas, FL 78831", "latitude": "-20.0589365", "longitude": "-123.819123"}, "6": {"id": 31, "name": "Kristy Alvarez", "address": "77913 Diane Groves Suite 167\nDavidton, NH 56273", "latitude": "65.8379315", "longitude": "155.175665"}, "7": {"id": 55, "name": "Dorothy Koch", "address": "614 Carmen Station Apt. 947\nSouth Thomas, AL 38435", "latitude": "-27.2044105", "longitude": "78.797633"}, "8": {"id": 75, "name": "Kathy Carroll", "address": "PSC 0795, Box 0999\nAPO AP 77884", "latitude": "8.831812", "longitude": "97.686338"}, "9": {"id": 18, "name": "Garrett Douglas", "address": "3614 Jeremy Ford Apt. 058\nNorth Carlos, IA 89426", "latitude": "8.9214755", "longitude": "47.052199"}}